,City,Country,Latitude,Longitude,Temperature (F),Humidity (%),Cloudiness (%),Wind Speed (mph)
0,Alofi,NU,-19.06,-169.92,84.2,66,75,13.87
4,Hermanus,ZA,-34.42,19.23,48.0,97,1,6.04
6,São João da Barra,BR,-21.64,-41.05,71.89,84,6,7.63
7,Ushuaia,AR,-54.8,-68.3,42.8,81,90,23.04
10,Puerto Ayora,EC,-0.74,-90.35,86.0,66,20,17.22
13,Souillac,MU,-20.52,57.52,75.99,77,13,7.0
15,Mataura,NZ,-46.19,168.86,54.0,91,99,5.01
18,Bluff,NZ,-46.6,168.33,54.0,91,96,5.01
19,Atuona,PF,-9.8,-139.03,81.9,68,0,12.57
21,Punta Arenas,CL,-53.15,-70.92,48.2,61,95,42.5
22,Busselton,AU,-33.65,115.33,63.0,84,99,14.07
25,Rikitea,PF,-23.12,-134.97,77.29,75,77,10.58
26,Saint-Philippe,RE,-21.36,55.77,69.8,73,4,6.93
28,Cape Town,ZA,-33.93,18.42,57.99,93,0,3.36
34,Neuquén,AR,-38.95,-68.06,64.4,52,99,4.7
35,San Rafael,AR,-34.62,-68.33,61.48,48,85,4.03
37,Carnarvon,AU,-24.87,113.63,69.8,83,10,6.93
38,Mar del Plata,AR,-38.0,-57.56,57.99,66,100,4.7
39,Port Keats,AU,-14.25,129.55,82.96,67,68,6.67
43,Inhambane,MZ,-23.86,35.38,73.02,83,0,8.77
46,Caravelas,BR,-17.71,-39.25,76.41,80,24,11.23
48,Maracaçumé,BR,-2.04,-45.96,75.11,93,99,2.33
54,Dunedin,NZ,-45.87,170.5,57.99,62,85,5.99
60,Avarua,CK,-21.21,-159.78,78.8,83,2,10.29
61,Poum,NC,-20.23,164.02,78.06,76,21,11.77
63,Kruisfontein,ZA,-34.0,24.73,58.53,77,84,4.25
65,Vaini,TO,-21.2,-175.2,82.4,74,75,10.29
66,Constitución,CL,-35.33,-72.42,61.07,46,77,7.09
68,Alvorada,BR,-12.48,-49.12,74.86,82,80,1.68
69,New Norfolk,AU,-42.78,147.06,55.0,66,55,5.01
73,Opuwo,NA,-18.06,13.84,66.78,25,0,5.19
81,Vanimo,PG,-2.67,141.3,84.51,71,63,3.56
82,Kasulu,TZ,-4.58,30.1,63.81,64,77,2.57
84,Castro,BR,-24.79,-50.01,58.3,56,1,3.09
86,Pisco,PE,-13.7,-76.22,73.4,64,0,18.34
87,Port Alfred,ZA,-33.59,26.89,63.0,91,95,3.0
89,Saint-Pierre,RE,-21.34,55.48,69.8,73,7,6.93
92,Sungai Penuh,ID,-2.08,101.38,67.3,71,45,2.51
97,Hithadhoo,MV,-0.6,73.08,84.36,71,100,5.93
99,Codrington,AU,-38.27,141.97,57.52,68,78,8.66
102,Hobart,AU,-42.88,147.33,55.4,43,20,17.22
103,Moranbah,AU,-22.0,148.05,80.19,47,6,11.16
105,Kaitangata,NZ,-46.28,169.85,55.99,74,88,5.01
108,Arraial do Cabo,BR,-22.97,-42.03,74.39,74,0,4.59
112,Touros,BR,-5.2,-35.46,75.2,100,75,3.36
113,Presidencia Roque Sáenz Peña,AR,-26.79,-60.44,70.47,49,0,3.67
115,Lebu,CL,-37.62,-73.65,52.56,72,79,7.07
119,Tuatapere,NZ,-46.13,167.68,54.0,91,96,5.01
124,Te Anau,NZ,-45.42,167.72,53.22,70,93,2.39
130,Antofagasta,CL,-23.65,-70.4,64.4,72,20,11.41
134,Emerald,AU,-23.53,148.17,75.99,68,63,5.82
135,Yulara,AU,-25.24,130.99,69.8,43,30,6.93
141,Henties Bay,NA,-22.12,14.28,61.0,89,15,1.99
145,Waipawa,NZ,-41.41,175.52,62.01,72,12,19.46
146,Vila Velha,BR,-20.33,-40.29,77.0,78,40,6.93
149,Walvis Bay,NA,-22.96,14.51,64.4,72,33,4.7
153,Vaitape,PF,-16.52,-151.75,81.81,77,80,13.91
154,Isangel,VU,-19.55,169.27,82.4,78,40,9.17
155,Santa Cruz de la Sierra,BO,-17.8,-63.17,87.8,48,20,6.93
158,Padang,ID,-0.95,100.35,79.34,75,82,4.23
160,Lichinga,MZ,-13.31,35.24,57.36,67,22,2.37
162,Bredasdorp,ZA,-34.53,20.04,55.4,82,0,5.82
163,Buala,SB,-8.14,159.59,85.19,69,61,3.44
170,Kupang,ID,-10.17,123.58,78.8,83,20,8.05
173,Camaçari,BR,-12.7,-38.32,77.0,88,75,11.41
174,Irati,BR,-25.47,-50.65,59.32,55,8,1.97
179,Ancud,CL,-41.87,-73.82,50.0,81,71,5.82
180,Comodoro Rivadavia,AR,-45.87,-67.5,57.2,58,0,8.43
181,Maués,BR,-3.38,-57.72,77.18,89,91,1.79
186,Santa Maria da Vitória,BR,-13.39,-44.19,72.09,79,40,4.07
187,Fare,PF,-16.7,-151.02,81.81,77,81,14.34
189,Mercedes,AR,-34.65,-59.43,63.0,69,78,1.01
191,Port Elizabeth,ZA,-33.92,25.57,60.8,87,40,9.17
197,Airai,TL,-8.93,125.41,67.5,52,39,4.72
198,Faanui,PF,-16.48,-151.75,80.96,77,82,13.8
201,Kirakira,SB,-10.45,161.92,84.6,72,51,4.7
203,Humaitá,BR,-7.51,-63.02,76.95,86,87,1.14
210,East London,ZA,-33.02,27.91,68.31,84,99,8.37
211,Bell Ville,AR,-32.63,-62.69,64.0,84,78,7.43
215,Geraldton,AU,-28.77,114.6,57.2,93,63,12.75
216,Biak,ID,-0.91,122.88,81.97,70,60,2.26
224,Jacareacanga,BR,-6.22,-57.75,75.45,91,99,0.2
236,Kongolo,CD,-5.38,27.0,70.79,79,96,0.31
243,Borba,BR,-4.39,-59.59,75.85,92,94,1.23
251,Quelimane,MZ,-17.88,36.89,71.6,94,20,3.36
252,Tual,ID,-5.67,132.75,84.45,72,15,7.67
256,Bambous Virieux,MU,-20.34,57.76,75.99,77,11,7.0
257,Talcahuano,CL,-36.72,-73.12,60.8,63,90,5.82
260,Lüderitz,NA,-26.65,15.16,64.4,63,76,6.93
261,Muswellbrook,AU,-32.27,150.9,66.99,52,0,11.01
267,Coquimbo,CL,-29.95,-71.34,60.8,82,75,4.7
268,Bengkulu,ID,-3.8,102.27,78.76,79,48,4.47
270,Rocha,UY,-34.48,-54.33,62.62,79,89,6.91
273,Chui,UY,-33.7,-53.46,64.72,89,19,9.37
276,Coyhaique,CL,-45.58,-72.07,48.2,76,65,2.24
278,Merauke,ID,-8.47,140.33,84.6,74,71,11.48
284,Esperance,AU,-33.87,121.9,53.6,81,58,9.17
295,Altamira,BR,-3.2,-52.21,74.32,92,88,1.23
297,Santa Maria,BR,-29.68,-53.81,66.31,58,0,1.23
303,Vao,NC,-22.67,167.48,75.72,81,7,14.94
305,Mossamedes,AO,-15.2,12.15,76.08,79,48,1.03
306,Ambilobe,MG,-13.2,49.05,71.74,83,98,4.63
309,Empangeni,ZA,-28.76,31.89,66.29,87,1,4.79
311,Soyo,AO,-6.13,12.37,77.5,83,99,4.99
318,Caconda,AO,-13.73,15.07,58.35,59,92,2.42
319,Belmonte,BR,-15.86,-38.88,77.0,78,20,4.7
322,Sorong,ID,-0.88,131.25,83.95,74,72,3.02
324,Upington,ZA,-28.45,21.26,69.8,35,97,2.24
328,Coari,BR,-4.08,-63.14,77.38,88,83,1.14
329,Plettenberg Bay,ZA,-34.05,23.37,59.52,79,64,4.09
334,Vallenar,CL,-28.57,-70.76,61.9,59,9,1.03
337,Loandjili,CG,-4.76,11.86,78.3,85,92,4.18
340,Port Hedland,AU,-20.32,118.57,80.6,51,16,8.05
349,Port Lincoln,AU,-34.73,135.87,63.0,69,2,6.13
350,Dargaville,NZ,-35.93,173.88,67.84,54,1,2.51
355,Tautira,PF,-17.73,-149.15,89.6,59,73,5.82
359,São José da Coroa Grande,BR,-8.9,-35.15,80.31,80,37,5.55
366,Leeton,AU,-34.57,146.4,55.0,87,3,7.09
368,Noumea,NC,-22.28,166.46,80.01,74,9,4.7
371,Novo Aripuanã,BR,-5.12,-60.38,76.12,93,92,1.52
376,Cidreira,BR,-30.18,-50.21,67.98,82,0,4.12
382,Hervey Bay,AU,-25.3,152.85,73.0,81,97,7.0
384,Mahébourg,MU,-20.41,57.7,75.99,76,12,5.01
388,Lorengau,PG,-2.02,147.27,85.91,67,84,5.08
390,Barranca,PE,-10.75,-77.77,72.0,71,18,8.37
399,Río Tercero,AR,-32.17,-64.11,66.07,61,97,4.7
402,Nabire,ID,-3.37,135.48,83.84,72,97,3.44
407,Sampit,ID,-2.53,112.95,81.0,84,17,1.19
410,Ambovombe,MG,-25.17,46.08,71.19,80,99,9.64
413,Manono,CD,-7.3,27.42,68.32,79,52,1.36
414,Pedra Branca,BR,-5.45,-39.72,70.74,83,100,0.78
415,Azul,AR,-36.78,-59.86,57.99,58,100,5.53
417,Santa Fe,AR,-31.63,-60.7,80.01,64,43,1.99
425,Chililabombwe,ZM,-12.36,27.82,56.19,63,99,3.69
429,Coruripe,BR,-10.13,-36.18,79.43,80,14,7.61
430,Pauini,BR,-7.71,-66.98,75.61,87,99,1.03
432,Manggar,ID,-2.88,108.27,82.76,78,19,4.54
436,Port Shepstone,ZA,-30.74,30.45,69.84,83,59,8.66
441,Morondava,MG,-20.28,44.28,72.1,92,100,14.27
445,Kununurra,AU,-15.77,128.73,78.8,83,1,3.36
446,Conceição do Araguaia,BR,-8.26,-49.26,73.4,94,100,2.24
447,Micheweni,TZ,-4.97,39.83,83.23,78,100,13.47
451,Sibiti,CG,-3.68,13.35,68.32,87,88,0.85
452,Flinders,AU,-34.58,150.86,66.99,58,0,7.0
453,Roebourne,AU,-20.78,117.13,87.1,48,30,10.96
462,Kiunga,PG,-6.12,141.29,82.85,76,58,3.11
471,Tiarei,PF,-17.53,-149.33,89.6,59,76,5.82
478,Ouricuri,BR,-7.88,-40.08,70.9,76,62,2.57
481,Nueve de Julio,AR,-35.44,-60.88,63.0,56,100,4.0
484,Chala,TZ,-7.58,31.27,53.85,62,80,1.72
485,Saldanha,ZA,-33.01,17.94,55.4,76,0,6.93
487,Wynyard,AU,-41.0,145.72,52.0,7,17,10.0
491,Ambanja,MG,-13.68,48.45,75.36,81,97,3.06
496,General Pico,AR,-35.66,-63.76,59.97,41,100,9.44
497,Nelson Bay,AU,-32.72,152.15,66.2,59,0,17.22
507,Tambopata,PE,-12.73,-69.18,79.09,69,89,2.55
510,Delmas,ZA,-26.15,28.68,61.0,57,0,4.43
512,Auki,SB,-8.77,160.7,85.26,67,38,3.06
518,São Félix do Xingu,BR,-6.64,-51.99,73.83,89,76,0.83
